City_ID,City,Lat,Lng,Max Temp,Humidity,Cloudiness,Wind Speed,Country,Date
0,broome,42.2506,-75.833,293.96,81,100,5.81,US,1667743739
1,lata,40.1629,-8.3327,292.08,84,100,0.53,PT,1667743752
2,cockburn town,21.4612,-71.1419,299.28,75,100,6.29,TC,1667743753
3,hithadhoo,-0.6,73.0833,300.46,75,100,3.0,MV,1667743753
4,khor,47.8861,134.9464,269.41,73,9,2.57,RU,1667743754
5,vaini,-21.2,-175.2,296.24,83,20,2.57,TO,1667743755
6,bowen,-20.0167,148.2333,297.87,70,77,8.16,AU,1667743755
7,butaritari,3.0707,172.7902,299.26,75,100,2.98,KI,1667743756
8,corinto,37.9407,22.9573,291.98,84,100,1.69,GR,1667743756
9,durango,24.8333,-104.8333,284.49,36,0,2.01,MX,1667743604
10,new norfolk,-42.7826,147.0587,286.32,95,0,1.42,AU,1667743757
11,punta arenas,-53.15,-70.9167,284.21,71,0,3.09,CL,1667743758
12,dingle,10.9995,122.6711,297.88,92,52,2.8,PH,1667743758
13,vila velha,-20.3297,-40.2925,298.12,65,20,6.69,BR,1667743527
14,lompoc,34.6391,-120.4579,288.03,97,100,3.6,US,1667743759
15,jumla,29.2747,82.1838,280.81,77,82,1.38,NP,1667743760
16,mitchell,43.7094,-98.0298,275.14,41,0,4.63,US,1667743699
17,rikitea,-23.1203,-134.9692,294.86,71,92,5.38,PF,1667743760
18,richards bay,-28.783,32.0377,297.25,64,5,4.89,ZA,1667743761
19,aripuana,-9.1667,-60.6333,306.55,33,69,1.28,BR,1667743761
20,vagay,57.9375,69.0217,270.24,83,90,3.32,RU,1667743762
21,east london,-33.0153,27.9116,295.81,66,38,7.48,ZA,1667743762
22,narsaq,60.9167,-46.05,276.27,88,100,0.52,GL,1667743763
23,risod,19.9667,76.7833,295.84,49,46,2.24,IN,1667743763
24,diu,20.7141,70.9822,300.05,57,57,0.68,IN,1667743764
25,bredasdorp,-34.5322,20.0403,296.02,60,21,8.78,ZA,1667743764
26,dikson,73.5069,80.5464,260.81,92,99,5.62,RU,1667743765
27,viedma,-40.8135,-62.9967,299.88,24,96,9.68,AR,1667743765
28,yining,29.0361,114.5636,287.03,67,0,1.2,CN,1667743766
29,teguise,29.0605,-13.564,294.27,83,40,6.17,ES,1667743494
30,arraial do cabo,-22.9661,-42.0278,298.07,61,20,4.63,BR,1667743767
31,tabou,4.423,-7.3528,301.13,74,83,3.36,CI,1667743767
32,bluff,-46.6,168.3333,281.79,82,68,5.91,NZ,1667743768
33,hermanus,-34.4187,19.2345,299.71,59,4,7.88,ZA,1667743769
34,lorch,48.7983,9.6914,284.23,81,97,2.93,DE,1667743769
35,sinop,41.7711,34.8709,285.79,83,99,2.52,TR,1667743769
36,lesnikovo,55.2822,65.3175,268.36,96,100,3.43,RU,1667743770
37,alice springs,-23.7,133.8833,296.9,15,11,4.63,AU,1667743770
38,kahului,20.8947,-156.47,299.17,73,0,2.68,US,1667743771
39,maldonado,-34.6667,-54.9167,295.81,49,2,5.56,UY,1667743609
40,kapaa,22.0752,-159.319,298.76,84,20,6.69,US,1667743772
41,bambous virieux,-20.3428,57.7575,297.71,70,12,4.15,MU,1667743772
42,ushuaia,-54.8,-68.3,281.96,81,100,2.57,AR,1667743773
43,ahipara,-35.1667,173.1667,287.62,88,95,4.45,NZ,1667743773
44,sumenep,-7.0167,113.8667,301.07,73,100,1.49,ID,1667743774
45,kisber,47.5029,18.0367,283.84,74,100,0.38,HU,1667743774
46,carnarvon,-24.8667,113.6333,293.24,67,100,7.73,AU,1667743775
47,hobart,-42.8794,147.3294,286.51,91,75,2.06,AU,1667743775
48,barrow,71.2906,-156.7887,257.16,78,0,9.77,US,1667743776
49,jamestown,42.097,-79.2353,290.94,91,20,4.12,US,1667743545
50,avarua,-21.2078,-159.775,291.18,94,0,1.03,CK,1667743776
51,pevek,69.7008,170.3133,263.25,96,98,0.6,RU,1667743777
52,reconquista,-29.15,-59.65,300.16,31,2,4.44,AR,1667743777
53,lavrentiya,65.5833,-171.0,274.45,98,100,9.38,RU,1667743777
54,mataura,-46.1927,168.8643,277.61,98,33,1.47,NZ,1667743778
55,mehamn,71.0357,27.8492,277.1,65,40,4.63,NO,1667743778
56,high level,58.5169,-117.136,258.21,92,100,3.09,CA,1667743779
57,atuona,-9.8,-139.0333,297.81,68,86,4.08,PF,1667743779
58,becerril,9.7041,-73.2793,299.65,77,99,0.49,CO,1667743780
59,patnos,39.2336,42.8634,283.28,40,15,1.73,TR,1667743780
60,ardakan,32.31,54.0175,293.07,18,0,1.79,IR,1667743780
61,palmer,42.1584,-72.3287,293.98,75,75,6.17,US,1667743781
62,tuktoyaktuk,69.4541,-133.0374,259.81,93,100,6.25,CA,1667743781
63,mount gambier,-37.8333,140.7667,284.74,76,6,1.89,AU,1667743782
64,busselton,-33.65,115.3333,288.39,82,74,5.46,AU,1667743782
65,pacific grove,36.6177,-121.9166,286.12,83,100,6.71,US,1667743783
66,saint-philippe,-21.3585,55.7679,297.92,81,87,1.64,RE,1667743783
67,waipawa,-41.4122,175.5153,280.14,89,0,2.63,NZ,1667743784
68,qinzhou,21.95,108.6167,294.12,79,0,1.07,CN,1667743784
69,sinnamary,5.3833,-52.95,302.88,65,41,1.74,GF,1667743785
70,goderich,43.7501,-81.7165,283.66,67,100,7.56,CA,1667743785
71,hasaki,35.7333,140.8333,281.37,53,74,4.02,JP,1667743785
72,bethel,41.3712,-73.414,294.29,79,40,5.14,US,1667743782
73,college,64.8569,-147.8028,256.64,85,0,1.54,US,1667743786
74,fomboni,-12.28,43.7425,299.3,76,0,5.04,KM,1667743786
75,laguna,38.421,-121.4238,287.14,79,100,5.66,US,1667743787
76,constitucion,-35.3333,-72.4167,289.13,68,0,4.25,CL,1667743787
77,kralendijk,12.15,-68.2667,303.14,70,0,2.06,BQ,1667743788
78,sao filipe,14.8961,-24.4956,300.07,63,0,2.67,CV,1667743788
79,san juan,-31.5375,-68.5364,300.75,22,65,3.85,AR,1667743789
80,albany,42.6001,-73.9662,294.4,77,100,0.89,US,1667743789
81,puerto ayora,-0.7393,-90.3518,295.13,77,43,4.54,EC,1667743790
82,torbay,47.6666,-52.7314,280.79,87,100,0.45,CA,1667743790
83,georgetown,5.4112,100.3354,301.42,85,20,1.03,MY,1667743742
84,qaanaaq,77.484,-69.3632,259.05,91,100,2.37,GL,1667743791
85,frankenburg,48.0684,13.4907,284.05,100,12,4.47,AT,1667743791
86,chapais,49.7834,-74.8492,285.03,72,100,7.95,CA,1667743564
87,mar del plata,-38.0023,-57.5575,296.39,76,0,8.49,AR,1667743500
88,waingapu,-9.6567,120.2641,301.11,77,52,0.57,ID,1667743792
89,lensk,60.7253,114.9278,267.86,94,100,4.33,RU,1667743792
90,aswan,24.0934,32.907,301.64,20,5,3.76,EG,1667743793
91,liverpool,53.4106,-2.9779,284.55,92,40,4.63,GB,1667743793
92,port alfred,-33.5906,26.891,295.47,80,40,3.13,ZA,1667743794
93,yatou,37.15,122.3833,285.94,60,100,5.06,CN,1667743794
94,matara,5.9485,80.5353,298.01,89,100,2.08,LK,1667743795
95,guerrero negro,27.9769,-114.0611,289.54,79,0,4.06,MX,1667743795
96,cabo san lucas,22.8909,-109.9124,295.66,75,0,0.45,MX,1667743795
97,souillac,-20.5167,57.5167,297.27,70,64,4.65,MU,1667743796
98,cape town,-33.9258,18.4232,301.12,56,6,3.13,ZA,1667743797
99,sharlyk,52.9167,54.75,271.95,86,88,3.59,RU,1667743797
100,kodiak,57.79,-152.4072,271.88,51,0,2.06,US,1667743797
101,shu,43.5983,73.7614,284.27,75,100,1.9,KZ,1667743798
102,chokurdakh,70.6333,147.9167,258.87,95,100,5.86,RU,1667743798
103,cileunyi,-6.9389,107.7528,294.63,95,100,0.55,ID,1667743799
104,bubaque,11.2833,-15.8333,301.42,68,2,2.48,GW,1667743799
105,evensk,61.95,159.2333,272.81,81,100,8.56,RU,1667743799
106,tiksi,71.6872,128.8694,257.55,94,100,10.19,RU,1667743800
107,castro,-24.7911,-50.0119,290.16,56,2,3.03,BR,1667743800
108,mitu,1.1983,-70.1733,302.89,57,57,0.37,CO,1667743801
109,tupik,54.4253,119.9327,259.22,91,7,1.69,RU,1667743801
110,kununurra,-15.7667,128.7333,300.14,57,6,1.54,AU,1667743802
111,kovdor,67.5662,30.4758,271.09,94,100,2.27,RU,1667743803
112,puerto narino,-3.7703,-70.3831,299.26,69,100,0.63,CO,1667743803
113,valparaiso,-33.0393,-71.6273,291.48,85,40,5.66,CL,1667743805
114,tura,25.5198,90.2201,292.52,92,1,1.25,IN,1667743806
115,ayan,56.45,138.1667,267.2,57,87,5.16,RU,1667743806
116,norman wells,65.282,-126.8329,260.54,89,99,5.97,CA,1667743807
117,hervey bay,-25.2986,152.8535,293.76,64,2,6.27,AU,1667743807
118,rorvik,64.8621,11.2373,279.21,87,0,1.03,NO,1667743808
119,isangel,-19.55,169.2667,297.55,89,10,2.12,VU,1667743809
120,lebu,-37.6167,-73.65,286.95,75,10,4.18,CL,1667743809
121,ribeira grande,38.5167,-28.7,293.37,77,40,4.63,PT,1667743811
122,nanortalik,60.1432,-45.2371,274.06,92,100,2.87,GL,1667743812
123,paita,-5.0892,-81.1144,292.12,77,17,4.19,PE,1667743812
124,glavanesti,46.25,27.3833,285.79,70,100,5.33,RO,1667743813
125,gat,31.61,34.7642,298.37,100,0,4.53,IL,1667743813
126,sitka,57.0531,-135.33,272.09,40,0,2.06,US,1667743814
127,san matias,-16.3667,-58.4,305.53,26,0,2.15,BO,1667743815
128,hay river,60.8156,-115.7999,261.13,72,75,6.69,CA,1667743815
129,longyearbyen,78.2186,15.6401,275.06,69,75,5.66,SJ,1667743555
130,juneau,58.3019,-134.4197,270.15,100,20,4.63,US,1667743816
131,shache,38.4167,77.2406,283.09,27,45,2.32,CN,1667743817
132,acapulco,16.8634,-99.8901,299.05,89,0,0.0,MX,1667743668
133,king city,36.2127,-121.126,289.21,95,61,1.08,US,1667743620
134,byron bay,-28.65,153.6167,287.99,77,14,2.62,AU,1667743544
135,muros,42.7762,-9.0603,291.56,78,15,5.95,ES,1667743818
136,kirakira,-10.4544,161.9205,299.3,84,96,0.98,SB,1667743819
137,hilo,19.7297,-155.09,296.07,89,20,2.57,US,1667743781
138,kaitangata,-46.2817,169.8464,278.72,92,11,2.52,NZ,1667743820
139,buraydah,26.326,43.975,300.48,16,5,2.7,SA,1667743821
140,indiana,40.0003,-86.2503,284.03,90,0,4.63,US,1667743821
141,meulaboh,4.1363,96.1285,298.76,84,100,1.33,ID,1667743743
142,sakaiminato,35.55,133.2333,286.64,68,75,2.35,JP,1667743822
143,saint-pierre,-21.3393,55.4781,297.97,73,75,3.6,RE,1667743823
144,zyryanka,65.75,150.85,250.98,95,90,2.45,RU,1667743823
145,gushikawa,26.3544,127.8686,294.72,77,20,3.6,JP,1667743824
146,talnakh,69.4865,88.3972,266.83,96,100,3.63,RU,1667743824
147,lorengau,-2.0226,147.2712,300.4,79,100,0.8,PG,1667743825
148,torres,-29.3353,-49.7269,292.5,70,81,2.41,BR,1667743826
149,kangaatsiaq,68.3065,-53.4641,269.6,66,100,5.85,GL,1667743826
150,severo-kurilsk,50.6789,156.125,275.63,73,100,4.91,RU,1667743827
151,novoagansk,61.9449,76.6625,263.81,99,83,1.14,RU,1667743828
152,belmonte,-15.8631,-38.8828,298.05,67,100,5.4,BR,1667743828
153,kindu,-2.95,25.95,296.38,86,100,0.82,CD,1667743829
154,san cristobal,7.7669,-72.225,297.25,66,84,2.29,VE,1667743829
155,matagami,49.7502,-77.6328,282.68,74,100,8.51,CA,1667743830
156,kropotkin,45.4375,40.5756,280.53,58,5,6.02,RU,1667743831
157,ilulissat,69.2167,-51.1,256.62,96,65,2.5,GL,1667743831
158,komsomolskiy,40.4272,71.7189,286.55,76,100,1.03,UZ,1667743832
159,kargasok,59.0556,80.8572,269.62,99,100,1.14,RU,1667743832
160,khatanga,71.9667,102.5,244.18,99,57,2.21,RU,1667743833
161,yellowknife,62.456,-114.3525,250.68,83,20,3.58,CA,1667743561
162,moba,33.2288,105.0179,282.61,75,100,0.98,CN,1667743834
163,thompson,55.7435,-97.8558,269.55,96,100,4.02,CA,1667743557
164,manaure,11.7751,-72.4445,299.64,76,99,1.49,CO,1667743835
165,abrego,8.0807,-73.2205,294.17,75,83,0.97,CO,1667743835
166,manthani,18.65,79.6667,296.64,64,90,0.93,IN,1667743836
167,bonthe,7.5264,-12.505,302.26,66,68,3.2,SL,1667743799
168,nome,64.5011,-165.4064,273.19,86,100,11.32,US,1667743765
169,flinders,-34.5833,150.8552,290.58,80,99,3.13,AU,1667743837
170,port elizabeth,-33.918,25.5701,299.87,73,40,3.13,ZA,1667743838
171,port blair,11.6667,92.75,300.62,72,100,5.24,IN,1667743838
172,naze,28.3667,129.4833,293.19,64,99,2.38,JP,1667743839
173,ostrovnoy,68.0531,39.5131,273.19,85,100,9.4,RU,1667743839
174,takoradi,4.8845,-1.7554,301.55,70,92,3.46,GH,1667743839
175,tulagi,-9.0996,160.1476,301.27,71,49,1.67,SB,1667743840
176,almaznyy,48.0448,40.045,276.42,66,91,2.95,RU,1667743840
177,laramie,41.3114,-105.5911,271.78,59,100,11.32,US,1667743617
178,saint george,37.1041,-113.5841,279.48,62,0,0.0,US,1667743841
179,mahebourg,-20.4081,57.7,297.73,70,23,4.09,MU,1667743585
180,asau,46.4333,26.4,284.66,93,100,1.8,RO,1667743842
181,grand bank,47.0999,-55.765,285.15,87,100,2.73,CA,1667743842
182,rawson,-43.3002,-65.1023,302.26,23,0,6.14,AR,1667743842
183,zinapecuaro,19.8667,-100.8167,285.88,74,0,0.44,MX,1667743843
184,caluquembe,-13.7833,14.6833,299.98,31,44,2.06,AO,1667743843
185,kampong cham,11.9934,105.4635,297.06,89,85,2.38,KH,1667743844
186,fortuna,40.5982,-124.1573,280.34,93,29,3.13,US,1667743844
187,nishihara,26.1842,127.7558,294.75,73,40,5.14,JP,1667743844
188,petropavlovsk-kamchatskiy,53.0452,158.6483,274.68,91,100,3.02,RU,1667743845
189,saskylakh,71.9167,114.0833,241.65,100,35,1.36,RU,1667743845
190,jinchang,38.4953,102.1739,279.34,32,12,1.88,CN,1667743846
191,huarmey,-10.0681,-78.1522,292.12,76,34,2.89,PE,1667743846
192,edd,13.9297,41.6925,303.97,58,14,7.7,ER,1667743846
193,itoigawa,37.0333,137.85,284.4,69,11,2.61,JP,1667743847
194,madimba,-10.4,40.3333,300.71,62,16,5.08,TZ,1667743847
195,kamen-rybolov,44.7481,132.0403,273.95,55,13,3.65,RU,1667743848
196,emerald,-23.5333,148.1667,291.67,69,1,6.43,AU,1667743848
197,dolores,-36.3132,-57.6792,296.14,38,6,7.16,AR,1667743849
198,tingo maria,-9.2895,-76.0088,296.77,78,97,0.13,PE,1667743849
199,mogadishu,2.0371,45.3438,299.52,76,54,4.5,SO,1667743646
200,garowe,8.4054,48.4845,304.02,30,15,0.46,SO,1667743850
201,aksu,41.1231,80.2644,284.0,32,100,1.45,CN,1667743850
202,maidstone,51.2667,0.5167,287.1,77,100,2.68,GB,1667743851
203,katsuura,35.1333,140.3,288.6,68,11,3.75,JP,1667743851
204,les cayes,18.2,-73.75,299.84,71,0,0.87,HT,1667743852
205,aqtobe,50.2797,57.2072,272.2,93,100,3.0,KZ,1667743554
206,aquiraz,-3.9014,-38.3911,303.2,61,99,6.26,BR,1667743852
207,osoyoos,49.0331,-119.4524,272.54,72,100,1.44,CA,1667743852
208,necochea,-38.5473,-58.7368,295.46,45,99,6.72,AR,1667743853
209,sao domingos,-13.3983,-46.3183,302.38,42,99,2.17,BR,1667743853
210,riyadh,24.6877,46.7219,305.23,20,3,3.7,SA,1667743632
211,doha,25.2867,51.5333,302.32,58,0,4.12,QA,1667743714
212,saldanha,-33.0117,17.9442,292.71,73,43,6.13,ZA,1667743854
213,tete,-16.1564,33.5867,305.71,42,94,3.29,MZ,1667743855
214,bonavista,48.6499,-53.1147,278.38,72,99,2.87,CA,1667743855
215,vostok,46.4856,135.8833,267.77,70,6,2.39,RU,1667743855
216,victoria,22.2855,114.1577,295.0,87,95,2.68,HK,1667743716
217,fairbanks,64.8378,-147.7164,256.65,84,0,1.54,US,1667743855
218,deputatskiy,69.3,139.9,252.63,92,100,7.81,RU,1667743856
219,tasiilaq,65.6145,-37.6368,271.24,91,100,1.78,GL,1667743857
220,mangaratiba,-22.9597,-44.0406,293.71,71,24,2.49,BR,1667743857
221,bato,13.3528,123.3677,298.04,93,78,1.38,PH,1667743858
222,sangar,63.9242,127.4739,243.58,99,100,1.49,RU,1667743858
223,nikolskoye,59.7035,30.7861,275.09,96,100,3.6,RU,1667743859
224,tessalit,20.1986,1.0114,304.71,10,0,3.83,ML,1667743859
225,los llanos de aridane,28.6585,-17.9182,296.01,74,75,4.47,ES,1667743563
226,saint-joseph,-21.3667,55.6167,297.36,80,72,1.84,RE,1667743608
227,trincomalee,8.5711,81.2335,300.64,70,100,4.45,LK,1667743860
228,gazanjyk,39.2446,55.5154,285.35,63,100,2.79,TM,1667743686
229,rivne,50.6231,26.2274,285.41,79,100,2.08,UA,1667743861
230,codrington,-38.2667,141.9667,284.73,81,0,2.07,AU,1667743862
231,ubinskoye,55.3068,79.6802,271.34,82,100,8.88,RU,1667743862
232,karratha,-20.7377,116.8463,296.06,66,95,8.24,AU,1667743863
233,rocha,-34.4833,-54.3333,294.68,52,10,5.88,UY,1667743863
234,cam ranh,11.9214,109.1591,299.13,78,20,5.14,VN,1667743864
235,haines junction,60.7522,-137.5108,254.87,93,82,2.11,CA,1667743865
236,pilar,-9.5972,-35.9567,300.11,81,91,4.52,BR,1667743865
237,aklavik,68.2191,-135.0107,258.35,83,100,1.57,CA,1667743866
238,teguldet,57.3064,88.1667,273.67,69,100,4.92,RU,1667743867
239,santa maria,-29.6842,-53.8069,295.3,47,0,5.69,BR,1667743533
240,vardo,70.3705,31.1107,276.14,93,100,4.63,NO,1667743867
241,lasa,46.6166,10.7002,282.8,60,71,0.57,IT,1667743868
242,maniitsoq,65.4167,-52.9,267.2,57,1,3.22,GL,1667743869
243,agadir,30.4202,-9.5982,300.4,43,2,3.19,MA,1667743624
244,longyan,25.1072,117.0225,290.59,95,100,1.11,CN,1667743869
245,port hardy,50.6996,-127.4199,275.46,99,100,3.44,CA,1667743870
246,silvania,-16.6589,-48.6081,302.26,30,43,1.4,BR,1667743871
247,constantine,36.365,6.6147,293.82,24,0,2.57,DZ,1667743871
248,tuatapere,-46.1333,167.6833,279.63,87,16,2.92,NZ,1667743872
249,hambantota,6.1241,81.1185,299.7,78,99,4.02,LK,1667743872
250,rio brilhante,-21.8019,-54.5464,299.17,35,0,3.85,BR,1667743873
251,axim,4.8699,-2.2405,300.98,75,95,2.66,GH,1667743873
252,ambon,-3.6954,128.1814,298.28,16,40,5.14,ID,1667743874
253,kavaratti,10.5669,72.642,300.83,74,4,2.11,IN,1667743874
254,clyde river,70.4692,-68.5914,249.97,86,4,2.16,CA,1667743875
255,tubuala,9.5167,-79.0333,298.03,91,100,4.09,PA,1667743875
256,bilibino,68.0546,166.4372,255.4,100,53,1.59,RU,1667743876
257,chuy,-33.6971,-53.4616,293.22,61,10,5.94,UY,1667743877
258,christchurch,-43.5333,172.6333,286.43,77,100,5.14,NZ,1667743843
259,tual,-5.6667,132.75,302.51,74,100,3.16,ID,1667743877
260,bandarbeyla,9.4942,50.8122,299.85,72,7,4.94,SO,1667743878
261,srandakan,-7.9386,110.2506,298.4,90,100,1.13,ID,1667743878
262,ambilobe,-13.2,49.05,301.49,59,68,2.74,MG,1667743658
263,klaksvik,62.2266,-6.589,280.66,81,90,7.26,FO,1667743879
264,coihaique,-45.5752,-72.0662,288.12,51,75,4.12,CL,1667743880
265,san javier,37.8063,-0.8374,299.25,54,0,3.6,ES,1667743880
266,altay,47.8667,88.1167,277.69,53,100,1.81,CN,1667743881
267,barahona,18.2085,-71.1008,301.05,89,20,3.09,DO,1667743783
268,beloha,-25.1667,45.05,297.53,76,100,1.95,MG,1667743881
269,pangnirtung,66.1451,-65.7125,258.84,85,11,3.85,CA,1667743882
270,broken hill,-31.95,141.4333,291.48,59,32,6.42,AU,1667743883
271,leningradskiy,69.3833,178.4167,271.19,68,69,5.21,RU,1667743883
272,uyuni,-20.4597,-66.825,284.63,17,0,0.88,BO,1667743884
273,lakes entrance,-37.8811,147.981,287.13,81,98,1.68,AU,1667743884
274,upernavik,72.7868,-56.1549,263.62,82,100,5.54,GL,1667743885
275,tevaitoa,-16.7833,-151.5,299.1,82,100,10.65,PF,1667743886
276,mabaruma,8.2,-59.7833,303.09,66,13,0.58,GY,1667743886
277,godda,24.8333,87.2167,296.61,55,19,0.96,IN,1667743887
278,pilisszentkereszt,47.6914,18.905,283.92,91,100,1.35,HU,1667743888
279,rancho palos verdes,33.7445,-118.387,286.79,92,2,0.45,US,1667743868
280,port macquarie,-31.4333,152.9167,286.98,82,42,2.27,AU,1667743862
281,qasigiannguit,68.8193,-51.1922,257.41,95,50,2.14,GL,1667743889
282,tooele,40.5308,-112.2983,275.97,81,100,2.57,US,1667743889
283,xingtai,37.0631,114.4942,285.59,48,3,2.92,CN,1667743890
284,aviles,43.5547,-5.9248,294.13,49,20,6.17,ES,1667743890
285,pitimbu,-7.4706,-34.8086,303.48,71,95,4.88,BR,1667743891
286,huari,-9.3333,-77.2333,283.61,64,40,2.46,PE,1667743891
287,namibe,-15.1961,12.1522,298.36,52,0,5.64,AO,1667743892
288,kruisfontein,-34.0033,24.7314,298.64,56,3,10.06,ZA,1667743892
289,bengkulu,-3.8004,102.2655,298.48,83,100,0.99,ID,1667743893
290,katangli,51.7102,143.2326,266.36,75,6,4.15,RU,1667743893
291,cayenne,4.9333,-52.3333,303.17,74,75,2.06,GF,1667743894
292,lora del rio,37.659,-5.5275,296.34,22,28,2.33,ES,1667743894
293,qujing,25.4833,103.7833,283.87,89,12,1.82,CN,1667743895
294,bam,29.106,58.357,294.82,30,57,2.85,IR,1667743895
295,ponta do sol,32.6667,-17.1,296.49,86,53,1.42,PT,1667743895
296,port keats,-14.25,129.55,302.14,71,13,3.5,AU,1667743896
297,batemans bay,-35.7167,150.1833,290.98,92,100,1.44,AU,1667743896
298,coquimbo,-29.9533,-71.3436,289.0,72,75,3.6,CL,1667743897
299,flin flon,54.7682,-101.865,269.06,86,100,9.26,CA,1667743898
300,barreiras,-12.1528,-44.99,299.54,62,100,2.29,BR,1667743899
301,cap malheureux,-19.9842,57.6142,297.85,69,10,3.13,MU,1667743899
302,council bluffs,41.2619,-95.8608,284.38,46,75,6.17,US,1667743782
303,shimoda,34.6667,138.95,286.54,72,91,3.63,JP,1667743900
304,touros,-5.1989,-35.4608,303.05,57,95,6.79,BR,1667743900
305,jiayuguan,39.8167,98.3,276.86,30,16,2.98,CN,1667743901
306,dauphin,51.1494,-100.0502,273.23,99,100,6.17,CA,1667743665
307,dunedin,-45.8742,170.5036,284.15,83,8,2.38,NZ,1667743901
308,lodja,-3.4833,23.4333,301.67,55,93,1.46,CD,1667743902
309,labuhan,-6.8844,112.2051,300.84,73,100,1.73,ID,1667743902
310,nowy tomysl,52.3195,16.1284,285.42,62,0,3.88,PL,1667743902
311,antofagasta,-23.65,-70.4,289.75,67,44,3.54,CL,1667743903
312,sibolga,1.7427,98.7792,298.01,87,100,1.14,ID,1667743904
313,ajdabiya,30.7554,20.2263,295.7,47,8,9.2,LY,1667743904
314,caborca,30.5838,-111.101,286.82,31,0,2.09,MX,1667743904
315,pula,44.8683,13.8481,289.46,44,0,4.12,HR,1667743905
316,mahajanga,-15.7167,46.3167,301.16,69,20,5.66,MG,1667743905
317,narrabri,-30.3167,149.7833,290.11,76,29,3.4,AU,1667743906
318,sungairaya,0.7,108.9,298.82,85,100,3.17,ID,1667743641
319,victoria point,-27.5833,153.3,293.81,79,1,1.34,AU,1667743907
320,raga,8.4596,25.678,308.66,19,83,3.74,SS,1667743907
321,pinega,64.7001,43.3936,270.5,92,60,3.71,RU,1667743908
322,te anau,-45.4167,167.7167,277.59,92,10,0.7,NZ,1667743908
323,san patricio,28.017,-97.5169,297.54,91,49,1.82,US,1667743908
324,provideniya,64.3833,-173.3,275.26,99,100,3.45,RU,1667743909
325,boyolangu,-8.1181,111.8935,297.74,91,100,0.59,ID,1667743832
326,porto walter,-8.2686,-72.7439,304.5,28,14,1.6,BR,1667743910
327,coari,-4.085,-63.1414,303.15,64,60,0.54,BR,1667743910
328,mount isa,-20.7333,139.5,299.02,50,75,4.63,AU,1667743910
329,teya,60.3778,92.6267,268.26,96,100,1.38,RU,1667743911
330,miraflores,19.2167,-98.8083,288.17,60,0,0.43,MX,1667743911
331,cherskiy,68.75,161.3,251.69,100,100,1.59,RU,1667743911
332,beberibe,-4.1797,-38.1306,303.57,57,91,6.37,BR,1667743912
333,portland,45.5234,-122.6762,281.47,91,100,6.17,US,1667743720
334,shobara,34.85,133.0167,281.12,92,53,0.92,JP,1667743913
335,vallenar,-28.5708,-70.7581,295.64,41,4,1.9,CL,1667743913
336,severnyy,50.677,36.5532,274.17,80,100,3.0,RU,1667743913
337,lagoa,39.05,-27.9833,290.66,72,0,7.57,PT,1667743914
338,ryki,51.6257,21.9327,284.16,46,98,1.0,PL,1667743914
339,arman,59.7,150.1667,270.07,79,100,5.27,RU,1667743915
340,esperance,-33.8667,121.9,288.16,80,52,9.02,AU,1667743915
341,xuddur,4.1213,43.8894,302.65,45,69,6.19,SO,1667743915
342,yar-sale,66.8333,70.8333,264.01,97,89,2.49,RU,1667743916
343,bolu,40.6667,31.5833,289.22,32,100,1.89,TR,1667743916
344,nichinan,31.6,131.3667,289.08,64,100,1.98,JP,1667743917
345,vytegra,61.0064,36.4481,274.6,80,100,4.7,RU,1667743917
346,zolotyy potik,48.9095,25.3393,282.39,80,100,2.94,UA,1667743918
347,chicontepec,20.9667,-98.1667,292.89,88,0,0.91,MX,1667743918
348,quelimane,-17.8786,36.8883,304.2,52,74,5.19,MZ,1667743919
349,sovetskiy,61.3614,63.5842,267.87,94,67,2.57,RU,1667743919
350,itoman,26.1247,127.6694,295.16,73,40,5.14,JP,1667743919
351,pleasanton,37.6624,-121.8747,284.88,85,100,4.63,US,1667743806
352,ancud,-41.8697,-73.8203,285.34,75,100,2.45,CL,1667743920
353,camacha,33.0833,-16.3333,293.83,68,40,3.6,PT,1667743920
354,hofn,64.2539,-15.2082,279.16,56,75,6.69,IS,1667743921
355,aksarka,66.5606,67.7975,263.94,95,78,1.03,RU,1667743921
356,loreto,22.2667,-101.9667,287.94,31,0,2.1,MX,1667743922
357,suleja,9.1758,7.1808,306.02,23,100,1.46,NG,1667743922
358,juegang,32.3174,121.1855,286.99,72,0,4.19,CN,1667743923
359,oranjemund,-28.55,16.4333,291.72,81,100,5.97,NA,1667743923
360,socorro,31.6546,-106.3033,287.31,44,20,2.57,US,1667743667
361,daru,-9.0763,143.2092,299.86,86,100,5.36,PG,1667743924
362,bukachacha,52.9833,116.9167,261.5,96,21,1.04,RU,1667743925
363,jijiga,9.35,42.8,297.9,19,7,6.92,ET,1667743925
364,ossora,59.2353,163.0719,268.31,79,13,1.68,RU,1667743926
365,nelson bay,-32.7167,152.15,290.93,95,5,2.68,AU,1667743926
366,tomatlan,19.9333,-105.25,293.05,86,2,1.28,MX,1667743927
367,zhigalovo,54.8097,105.1578,269.28,98,100,1.15,RU,1667743928
368,revda,56.801,59.9303,269.55,91,100,4.56,RU,1667743929
369,santona,43.4439,-3.4576,293.67,52,89,1.82,ES,1667743930
370,boguchany,58.3814,97.4531,269.67,97,100,1.23,RU,1667743930
371,traverse city,44.7631,-85.6206,282.6,77,75,4.12,US,1667743911
372,mendeleyevsk,55.9082,52.2905,272.73,88,54,3.38,RU,1667743931
373,gravelbourg,49.8834,-106.5512,263.22,80,100,10.8,CA,1667743932
374,price,39.5994,-110.8107,276.74,65,100,1.54,US,1667743932
375,tilichiki,60.4667,166.1,265.61,93,27,2.3,RU,1667743933
376,ust-nera,64.5667,143.2,250.33,98,100,1.9,RU,1667743933
377,bugko,12.5356,124.7923,298.98,91,100,2.52,PH,1667743934
378,oktyabrskiy,54.4815,53.471,271.99,85,100,3.13,RU,1667743934
379,cidreira,-30.1811,-50.2056,292.07,72,19,5.46,BR,1667743935
380,warragul,-38.1667,145.9333,288.21,86,92,1.37,AU,1667743935
381,thinadhoo,0.5333,72.9333,301.1,74,20,5.05,MV,1667743936
382,namatanai,-3.6667,152.4333,299.71,82,100,1.44,PG,1667743937
383,winder,33.9926,-83.7202,294.65,96,100,0.0,US,1667743937
384,marystown,47.1666,-55.1483,285.34,85,76,1.84,CA,1667743938
385,salalah,17.0151,54.0924,301.2,69,20,2.06,OM,1667743938
386,akureyri,65.6835,-18.0878,273.14,95,42,1.73,IS,1667743911
387,toamasina,-18.1667,49.3833,298.49,69,7,4.48,MG,1667743939
388,ilhabela,-23.7781,-45.3581,294.12,67,28,1.82,BR,1667743939
389,saint-malo,48.5,-1.8333,289.96,80,3,8.91,FR,1667743940
390,mosquera,4.7059,-74.2302,287.2,82,75,1.54,CO,1667743940
391,strezhevoy,60.7333,77.5889,268.46,99,97,0.33,RU,1667743941
392,onguday,50.75,86.15,277.24,81,100,1.59,RU,1667743941
393,kuytun,54.3419,101.5036,271.01,89,100,2.94,RU,1667743942
394,chipinge,-20.1883,32.6236,293.8,84,88,2.99,ZW,1667743942
395,grafton,42.207,-71.6856,294.37,80,40,8.23,US,1667743943
396,date,42.4681,140.8681,278.62,64,8,3.64,JP,1667743943
397,bima,-8.4667,118.7167,299.17,88,93,1.32,ID,1667743944
398,tromso,69.6496,18.957,276.16,81,75,4.12,NO,1667743944
399,concarneau,47.875,-3.9225,289.31,79,1,10.22,FR,1667743945
400,humaita,-7.5061,-63.0208,307.06,34,97,1.53,BR,1667743945
401,toktogul,41.8708,72.9402,282.99,72,100,1.48,KG,1667743946
402,gabu,12.2833,-14.2167,308.49,32,19,0.62,GW,1667743946
403,coos bay,43.3665,-124.2179,282.12,97,100,4.63,US,1667743948
404,sur,22.5667,59.5289,301.09,61,89,1.23,OM,1667743949
405,mtimbira,-8.7833,36.35,309.14,24,85,3.27,TZ,1667743950
406,sanmenxia,34.7747,111.1814,287.57,66,6,0.26,CN,1667743950
407,yumen,40.2833,97.2,277.67,28,24,3.7,CN,1667743951
408,harper,4.375,-7.7169,300.88,75,87,3.38,LR,1667743951
409,torzhok,57.0436,34.9622,274.33,76,100,4.52,RU,1667743952
410,cairns,-16.9167,145.7667,298.19,81,40,4.12,AU,1667743952
411,teahupoo,-17.8333,-149.2667,295.13,87,100,12.92,PF,1667743953
412,atar,20.5169,-13.0499,306.95,7,100,4.98,MR,1667743953
413,newport,51.5877,-2.9984,286.31,88,100,9.14,GB,1667743954
414,beringovskiy,63.05,179.3167,275.13,81,77,7.49,RU,1667743954
415,orlik,52.5178,99.825,264.87,91,100,1.15,RU,1667743955
416,dzhebariki-khaya,62.2167,135.8,254.71,99,100,0.95,RU,1667743955
417,puerto del rosario,28.5004,-13.8627,298.01,69,20,4.63,ES,1667743955
418,krasnoarmeysk,51.0239,45.6969,275.86,65,100,2.31,RU,1667743956
419,payo,-3.7508,103.6372,296.69,98,100,0.32,ID,1667743956
420,shubarkuduk,49.1447,56.4872,270.76,90,57,2.61,KZ,1667743957
421,jining,35.405,116.5814,285.65,45,62,3.3,CN,1667743957
422,kalaleh,37.3807,55.4916,288.63,79,100,2.2,IR,1667743957
423,terrace,54.5163,-128.6035,266.87,74,100,2.23,CA,1667743731
424,egvekinot,66.3167,-179.1667,270.86,97,100,6.53,RU,1667743958
425,san juan de flores,14.2667,-87.0333,296.97,85,99,0.57,HN,1667743959
426,smithers,54.7804,-127.1743,262.09,80,99,1.51,CA,1667743817
427,lichinga,-13.3128,35.2406,301.2,34,75,5.66,MZ,1667743959
428,haimen,23.1935,116.6142,293.69,80,76,9.58,CN,1667743960
429,santo tomas,14.1079,121.1414,299.57,93,91,1.91,PH,1667743960
430,iqaluit,63.7506,-68.5145,266.0,63,100,1.03,CA,1667743960
431,shilka,51.85,116.0333,269.0,83,7,2.09,RU,1667743961
432,tsabong,-26.0217,22.401,304.36,11,100,2.12,BW,1667743962
433,mattru,7.6244,-11.8332,302.42,70,39,1.59,SL,1667743962
434,pangody,65.85,74.4859,264.81,96,100,1.33,RU,1667743962
435,alenquer,-1.9417,-54.7383,297.8,88,100,0.46,BR,1667743963
436,hobyo,5.3505,48.5268,300.46,69,24,5.49,SO,1667743963
437,winnemucca,40.973,-117.7357,275.18,75,40,2.57,US,1667743811
438,cumana,10.4635,-64.1775,302.17,59,14,0.57,VE,1667743964
439,kemijarvi,66.7131,27.4306,272.58,98,97,1.52,FI,1667743964
440,tibiao,11.2915,122.0354,300.31,78,95,2.12,PH,1667743965
441,bilokurakyne,49.5341,38.7307,277.13,66,28,2.53,UA,1667743965
442,chavakkad,10.5333,76.05,299.42,81,98,1.36,IN,1667743965
443,voskresenskoye,56.8381,45.4317,271.13,91,57,2.16,RU,1667743966
444,hami,42.8,93.45,284.22,21,98,2.29,CN,1667743966
445,kasama,-10.2129,31.1808,300.61,36,100,2.84,ZM,1667743967
446,male,4.1748,73.5089,301.12,83,75,3.6,MV,1667743784
447,bella union,-30.2752,-57.6007,297.26,41,0,5.95,UY,1667743967
448,tocopilla,-22.092,-70.1979,292.36,64,8,3.97,CL,1667743968
449,muli,2.9167,73.5667,300.71,77,99,5.46,MV,1667743968
450,thiers,45.8333,3.5,290.33,36,94,2.52,FR,1667743969
451,slave lake,55.2834,-114.769,260.14,78,100,5.14,CA,1667743969
452,botwood,49.1499,-55.3482,279.21,73,100,2.42,CA,1667743970
453,fayaoue,-20.65,166.5333,299.05,81,6,5.3,NC,1667743970
454,fukue,32.6881,128.8419,289.16,54,100,3.63,JP,1667743971
455,lakkion,37.1333,26.85,292.87,70,100,9.59,GR,1667743971
456,kuznechikha,57.2161,42.3348,271.52,85,21,2.32,RU,1667743972
457,balkhash,46.844,74.9804,278.33,62,94,1.22,KZ,1667743972
458,seybaplaya,19.65,-90.6667,297.85,81,97,4.07,MX,1667743973
459,shellbrook,53.2168,-106.4011,262.4,85,100,8.73,CA,1667743973
460,khash,28.2211,61.2158,293.08,39,100,5.83,IR,1667743974
461,nha trang,12.25,109.1833,299.15,90,99,3.27,VN,1667743974
462,buala,-8.145,159.5921,299.71,81,100,1.81,SB,1667743975
463,comodoro rivadavia,-45.8667,-67.5,297.07,29,0,8.75,AR,1667743965
464,vestmannaeyjar,63.4427,-20.2734,279.7,81,75,13.89,IS,1667743975
465,terrace bay,48.7834,-87.1,275.52,84,100,2.37,CA,1667743976
466,bundu,23.1833,85.5833,297.27,60,0,0.92,IN,1667743976
467,iquitos,-3.7481,-73.2472,304.17,79,0,1.03,PE,1667743976
468,mastic beach,40.7668,-72.8521,293.98,90,100,0.89,US,1667743977
469,jiaocheng,24.6774,116.1389,290.92,96,100,0.92,CN,1667743977
470,ternate,0.8,127.4,300.67,77,100,0.24,ID,1667743978
471,karaton,-6.3424,106.1045,296.98,92,100,1.01,ID,1667743978
472,independencia,-5.3964,-40.3086,299.93,64,93,3.42,BR,1667743979
473,policarpa,1.6323,-77.462,296.76,74,51,1.22,CO,1667743979
474,syracuse,37.0881,15.2792,294.8,59,25,5.16,IT,1667743407
475,alpena,45.0617,-83.4327,282.29,77,0,5.66,US,1667743980
476,castrovillari,39.8203,16.2123,287.76,73,100,1.59,IT,1667743980
477,srednekolymsk,67.45,153.6833,253.44,97,90,5.65,RU,1667743980
478,manjacaze,-24.7117,33.8828,299.28,69,89,4.89,MZ,1667743981
479,marzuq,14.4,46.4667,299.34,36,2,1.8,YE,1667743981
480,ouadda,8.0777,22.4007,306.11,27,65,3.05,CF,1667743982
481,villanueva de la serena,38.9766,-5.7974,292.79,30,88,2.29,ES,1667743982
482,batagay,67.6333,134.6333,252.66,99,100,1.34,RU,1667743983
483,temiscaming,46.7212,-79.0971,282.8,80,100,5.66,CA,1667743983
484,clyde,41.3042,-82.9752,285.7,76,40,5.81,US,1667743984
485,tateyama,34.9833,139.8667,288.84,67,11,3.91,JP,1667743985
486,calabar,4.9517,8.322,302.5,70,90,1.93,NG,1667743985
487,shaunavon,49.6501,-108.4181,261.67,87,100,9.81,CA,1667743985
488,alofi,-19.0595,-169.9187,297.21,70,12,7.72,NU,1667743986
489,alta floresta,-9.8756,-56.0861,306.17,39,29,1.11,BR,1667743986
490,port-gentil,-0.7193,8.7815,301.13,83,75,7.2,GA,1667743987
491,kanashevo,55.2169,62.0634,272.46,85,100,4.76,RU,1667743987
492,hamilton,39.1834,-84.5333,288.08,79,20,3.6,US,1667743988
493,moree,-29.4667,149.85,292.78,55,74,4.9,AU,1667743988
494,kavieng,-2.5744,150.7967,301.4,72,100,2.41,PG,1667743989
495,tawau,4.2498,117.8871,299.28,86,98,1.92,MY,1667743990
496,banepa,27.6298,85.5214,289.33,82,20,2.57,NP,1667743990
497,magadan,59.5667,150.8,270.31,74,100,6.57,RU,1667743991
498,blackpool,53.8167,-3.05,284.77,93,40,5.66,GB,1667743719
499,kiruna,67.8557,20.2251,272.66,100,100,2.57,SE,1667743991
500,lashio,22.9333,97.75,289.46,87,0,0.93,MM,1667743992
501,vicuna,-30.0319,-70.7081,285.0,30,88,2.91,CL,1667743992
502,saint anthony,45.0205,-93.218,279.18,89,0,3.09,US,1667743993
503,sioux lookout,50.1001,-91.917,272.7,67,100,2.95,CA,1667743967
504,whitehorse,60.7161,-135.0538,258.72,62,99,4.47,CA,1667743994
505,hibbing,47.4272,-92.9377,274.93,100,75,2.06,US,1667743995
506,paamiut,61.994,-49.6678,270.91,80,94,11.37,GL,1667743995
507,geraldton,-28.7667,114.6,291.38,77,100,6.17,AU,1667743996
508,noumea,-22.2763,166.4572,296.14,91,5,4.22,NC,1667743997
509,chingirlau,51.095,54.0814,268.75,95,72,2.64,KZ,1667743997
510,camana,-16.6228,-72.7111,292.47,71,24,4.77,PE,1667743998
511,yulara,-25.2406,130.9889,301.2,15,87,6.96,AU,1667743998
512,lappeenranta,61.0587,28.1887,278.18,100,100,2.57,FI,1667743999
513,bollnas,61.3482,16.3946,280.81,91,100,3.25,SE,1667743999
514,mersing,2.4312,103.8405,298.81,84,100,1.56,MY,1667743999
515,abha,18.2164,42.5053,292.29,68,20,5.14,SA,1667744000
516,mongoumba,3.6415,18.5936,304.68,48,100,2.55,CF,1667744000
517,hokitika,-42.7167,170.9667,282.47,86,0,1.99,NZ,1667743701
518,shingu,33.7333,135.9833,285.5,74,78,2.59,JP,1667744001
519,yerazgavors,40.7,43.75,283.58,37,40,5.66,AM,1667744002
520,candelaria,13.9311,121.4233,297.46,96,99,2.0,PH,1667744002
521,nouadhibou,20.931,-17.0347,296.84,53,0,4.25,MR,1667744002
522,lisala,2.15,21.5167,300.26,78,93,0.92,CD,1667744003
523,channel-port aux basques,47.5702,-59.1367,284.96,94,100,1.9,CA,1667744003
524,honiara,-9.4333,159.95,298.83,87,38,0.77,SB,1667743831
525,lao cai,22.4833,103.95,293.39,82,23,0.38,VN,1667744004
526,saint-augustin,51.226,-58.6502,277.01,85,100,8.66,CA,1667744005
527,puqi,29.7167,113.8833,289.87,54,0,1.38,CN,1667744005
528,luorong,24.4058,109.6086,293.01,66,0,0.74,CN,1667744006
529,hualmay,-11.0964,-77.6139,291.6,75,40,3.11,PE,1667744006
530,nanakuli,21.3906,-158.1547,298.4,76,0,2.06,US,1667744007
531,ndele,8.4109,20.6473,307.81,24,36,2.13,CF,1667744007
532,tautira,-17.7333,-149.15,297.17,90,100,12.42,PF,1667744007
533,lantawan,10.6167,123.9833,299.98,85,62,1.66,PH,1667744008
534,henties bay,-22.116,14.2845,291.76,75,92,4.78,NA,1667744009
535,yuci,37.6803,112.7319,282.01,57,0,3.0,CN,1667744009
536,sayula,19.8667,-103.6167,290.08,78,0,0.84,MX,1667744010
537,kedrovyy,56.1667,91.8167,272.52,87,100,3.93,RU,1667744010
538,cururupu,-1.8283,-44.8683,303.06,63,62,1.66,BR,1667744011
539,middletown,39.5151,-84.3983,288.19,76,0,4.63,US,1667744006
540,manjakandriana,-18.9167,47.8,296.98,50,83,4.25,MG,1667744012
541,barstow,34.8986,-117.0228,284.7,62,2,2.31,US,1667744013
542,ygatimi,-24.0833,-55.5,299.33,40,0,2.63,PY,1667744013
543,swan hill,-35.3378,143.5544,287.24,87,88,2.0,AU,1667744013
544,omboue,-1.5746,9.2618,296.89,91,100,2.35,GA,1667744014
545,mayo,38.8876,-76.5119,294.34,92,100,3.6,US,1667744014
546,grindavik,63.8424,-22.4338,278.41,75,0,5.66,IS,1667744015
547,okhotsk,59.3833,143.3,262.12,59,24,3.98,RU,1667744015
548,northam,51.0333,-4.2167,286.14,84,100,10.05,GB,1667744016
549,champerico,14.3,-91.9167,299.45,79,12,1.69,GT,1667744016
550,mayumba,-3.432,10.6554,297.74,91,100,2.77,GA,1667744017
551,plettenberg bay,-34.0527,23.3716,294.36,74,7,6.47,ZA,1667744017
552,marawi,7.9986,124.2928,293.98,96,100,0.62,PH,1667744018
553,caravelas,-17.7125,-39.2481,299.24,53,61,5.36,BR,1667744018
554,tagusao,9.1924,117.8141,300.36,82,42,1.14,PH,1667744019
555,sawakin,19.1059,37.3321,302.32,67,93,3.95,SD,1667744019
556,great falls,47.5002,-111.3008,266.86,88,100,4.63,US,1667744020
557,pochutla,15.7432,-96.4661,298.61,83,81,1.13,MX,1667744020
558,spornoye,50.8448,37.2913,276.16,69,31,2.05,RU,1667744021
559,trinidad,-14.8333,-64.9,302.14,48,0,2.06,BO,1667744021
560,mehran,33.1222,46.1646,296.23,18,0,5.76,IR,1667744021
561,kashi,39.4547,75.9797,282.81,33,46,1.83,CN,1667744022
562,malakal,9.5334,31.6605,308.14,27,91,3.11,SS,1667744022
563,coria,39.9879,-6.5377,292.29,45,89,1.7,ES,1667744023
564,idil,37.3411,41.8895,292.11,26,0,2.06,TR,1667744023
565,kargopol,61.5071,38.9456,272.87,83,100,4.51,RU,1667744024
566,goure,13.9835,10.2704,304.84,10,5,3.73,NE,1667744024
567,klimovo,52.3805,32.1923,276.04,70,100,4.87,RU,1667744024
568,greece,43.2098,-77.6931,290.31,91,100,3.09,US,1667744025
569,vila franca do campo,37.7167,-25.4333,292.7,67,59,2.96,PT,1667744025
570,faanui,-16.4833,-151.75,299.24,81,100,10.83,PF,1667744026
571,dourbali,11.8091,15.8632,308.24,12,13,1.89,TD,1667744026
572,kijang,35.2442,129.2139,286.51,41,100,0.98,KR,1667744026
573,belyy yar,53.6039,91.3903,273.07,93,100,1.0,RU,1667744027
